{
  "cache": {
    "上海中心大厦@上海": {
      "longitude": 121.505366,
      "latitude": 31.23351,
      "name": "上海中心大厦",
      "formatted_address": "东泰路126号上海中心大厦",
      "address": "东泰路126号",
      "pname": "上海市",
      "cityname": "上海市",
      "adname": "浦东新区",
      "type": "商务住宅;楼宇;商务写字楼",
      "typecode": "120201",
      "tel": "021-61999766",
      "adcode": "",
      "citycode": "",
      "business_area": "",
      "alias": "",
      "tag": "",
      "distance": [],
      "direction": "",
      "level": "POI"
    },
    "上海东方明珠广播电视塔@上海": {
      "longitude": 121.499718,
      "latitude": 31.239703,
      "name": "东方明珠广播电视塔",
      "formatted_address": "世纪大道1号东方明珠广播电视塔",
      "address": "世纪大道1号",
      "pname": "上海市",
      "cityname": "上海市",
      "adname": "浦东新区",
      "type": "风景名胜;风景名胜;国家级景点",
      "typecode": "110202",
      "tel": "021-58791888",
      "adcode": "",
      "citycode": "",
      "business_area": "",
      "alias": "",
      "tag": "",
      "distance": [],
      "direction": "",
      "level": "POI"
    },
    "上海陆家嘴东方明珠桔子水晶酒店@上海": {
      "longitude": 121.518954,
      "latitude": 31.243098,
      "name": "上海陆家嘴东方明珠桔子水晶酒店",
      "formatted_address": "陆家嘴街道东方路8号上海陆家嘴东方明珠桔子水晶酒店",
      "address": "陆家嘴街道东方路8号",
      "pname": "上海市",
      "cityname": "上海市",
      "adname": "浦东新区",
      "type": "住宿服务;宾馆酒店;四星级宾馆",
      "typecode": "100103",
      "tel": "021-68683066",
      "adcode": "",
      "citycode": "",
      "business_area": "",
      "alias": "",
      "tag": "",
      "distance": [],
      "direction": "",
      "level": "POI"
    },
    "上海自然博物馆@上海": {
      "longitude": 121.462672,
      "latitude": 31.235021,
      "name": "上海自然博物馆",
      "formatted_address": "北京西路510号上海自然博物馆",
      "address": "北京西路510号",
      "pname": "上海市",
      "cityname": "上海市",
      "adname": "静安区",
      "type": "科教文化服务;博物馆;博物馆",
      "typecode": "140100",
      "tel": "021-62620116;021-68622000",
      "adcode": "",
      "citycode": "",
      "business_area": "",
      "alias": "",
      "tag": "",
      "distance": [],
      "direction": "",
      "level": "POI"
    },
    "布丁酒店(上海华师大金沙江路地铁站店)@上海": {
      "longitude": 121.412538,
      "latitude": 31.228851,
      "name": "布丁酒店(上海华师大金沙江路地铁站店)",
      "formatted_address": "凯旋北路1555弄2号(金沙江路地铁站1口步行360米)布丁酒店(上海华师大金沙江路地铁站店)",
      "address": "凯旋北路1555弄2号(金沙江路地铁站1口步行360米)",
      "pname": "上海市",
      "cityname": "上海市",
      "adname": "普陀区",
      "type": "住宿服务;宾馆酒店;经济型连锁酒店",
      "typecode": "100105",
      "tel": "021-62858006",
      "adcode": "",
      "citycode": "",
      "business_area": "",
      "alias": "",
      "tag": "",
      "distance": [],
      "direction": "",
      "level": "POI"
    },
    "上海南京路步行街景点@上海": {
      "longitude": 121.479494,
      "latitude": 31.235983,
      "name": "南京路步行街",
      "formatted_address": "南京东路558号南京路步行街",
      "address": "南京东路558号",
      "pname": "上海市",
      "cityname": "上海市",
      "adname": "黄浦区",
      "type": "购物服务;购物相关场所;购物相关场所",
      "typecode": "060000",
      "tel": [],
      "adcode": "",
      "citycode": "",
      "business_area": "",
      "alias": "",
      "tag": "",
      "distance": [],
      "direction": "",
      "level": "POI"
    },
    "沈大成(南京东路店)@上海": {
      "longitude": 121.478317,
      "latitude": 31.235726,
      "name": "沈大成(南京东路店)",
      "formatted_address": "南京东路街道南京路步行街636号沈大成(南京东路店)",
      "address": "南京东路街道南京路步行街636号",
      "pname": "上海市",
      "cityname": "上海市",
      "adname": "黄浦区",
      "type": "餐饮服务;中餐厅;中餐厅",
      "typecode": "050100",
      "tel": "021-63223783;021-63224926",
      "adcode": "",
      "citycode": "",
      "business_area": "",
      "alias": "",
      "tag": "",
      "distance": [],
      "direction": "",
      "level": "POI"
    },
    "上海博物馆(人民广场馆)@上海": {
      "longitude": 121.475497,
      "latitude": 31.228234,
      "name": "上海博物馆(人民广场馆)",
      "formatted_address": "人民大道201号上海博物馆(人民广场馆)",
      "address": "人民大道201号",
      "pname": "上海市",
      "cityname": "上海市",
      "adname": "黄浦区",
      "type": "科教文化服务;博物馆;博物馆",
      "typecode": "140100",
      "tel": "021-63723500",
      "adcode": "",
      "citycode": "",
      "business_area": "",
      "alias": "",
      "tag": "",
      "distance": [],
      "direction": "",
      "level": "POI"
    },
    "上海外滩景点@上海": {
      "longitude": 121.492127,
      "latitude": 31.233516,
      "name": "外滩",
      "formatted_address": "中山东一路49号外滩",
      "address": "中山东一路49号",
      "pname": "上海市",
      "cityname": "上海市",
      "adname": "黄浦区",
      "type": "风景名胜;风景名胜;风景名胜",
      "typecode": "110200",
      "tel": [],
      "adcode": "",
      "citycode": "",
      "business_area": "",
      "alias": "",
      "tag": "",
      "distance": [],
      "direction": "",
      "level": "POI"
    },
    "CASANOVA意大利餐厅(外滩店)@上海": {
      "longitude": 121.490537,
      "latitude": 31.234709,
      "name": "CASANOVA意大利餐厅(外滩店)",
      "formatted_address": "中山东一路6号4楼(外滩6号内)CASANOVA意大利餐厅(外滩店)",
      "address": "中山东一路6号4楼(外滩6号内)",
      "pname": "上海市",
      "cityname": "上海市",
      "adname": "黄浦区",
      "type": "餐饮服务;外国餐厅;意式菜品餐厅",
      "typecode": "050205",
      "tel": "021-63463686",
      "adcode": "",
      "citycode": "",
      "business_area": "",
      "alias": "",
      "tag": "",
      "distance": [],
      "direction": "",
      "level": "POI"
    },
    "上海邮政博物馆@上海": {
      "longitude": 121.484749,
      "latitude": 31.244286,
      "name": "上海邮政博物馆",
      "formatted_address": "天潼路395号(天潼路地铁站3号口步行290米)上海邮政博物馆",
      "address": "天潼路395号(天潼路地铁站3号口步行290米)",
      "pname": "上海市",
      "cityname": "上海市",
      "adname": "虹口区",
      "type": "科教文化服务;博物馆;博物馆",
      "typecode": "140100",
      "tel": [],
      "adcode": "",
      "citycode": "",
      "business_area": "",
      "alias": "",
      "tag": "",
      "distance": [],
      "direction": "",
      "level": "POI"
    },
    "深圳宝安国际机场 → 上海浦东国际机场": {
      "longitude": 121.808682,
      "latitude": 31.142267,
      "name": "上海浦东国际机场",
      "formatted_address": "迎宾大道6000号上海浦东国际机场",
      "address": "迎宾大道6000号",
      "pname": "上海市",
      "cityname": "上海市",
      "adname": "浦东新区",
      "type": "交通设施服务;机场相关;飞机场",
      "typecode": "150104",
      "tel": "021-68347575;021-96081388",
      "adcode": "",
      "citycode": "",
      "business_area": "",
      "alias": "",
      "tag": "",
      "distance": [],
      "direction": "",
      "level": "POI"
    },
    "上海邮政博物馆": {
      "longitude": 121.484749,
      "latitude": 31.244286,
      "name": "上海邮政博物馆",
      "formatted_address": "天潼路395号(天潼路地铁站3号口步行290米)上海邮政博物馆",
      "address": "天潼路395号(天潼路地铁站3号口步行290米)",
      "pname": "上海市",
      "cityname": "上海市",
      "adname": "虹口区",
      "type": "科教文化服务;博物馆;博物馆",
      "typecode": "140100",
      "tel": [],
      "adcode": "",
      "citycode": "",
      "business_area": "",
      "alias": "",
      "tag": "",
      "distance": [],
      "direction": "",
      "level": "POI"
    },
    "上海浦东国际机场 → 深圳宝安国际机场": {
      "longitude": 113.808156,
      "latitude": 22.636116,
      "name": "深圳宝安国际机场",
      "formatted_address": "机场南路深圳宝安国际机场",
      "address": "机场南路",
      "pname": "广东省",
      "cityname": "深圳市",
      "adname": "宝安区",
      "type": "交通设施服务;机场相关;飞机场",
      "typecode": "150104",
      "tel": "0755-23456789",
      "adcode": "",
      "citycode": "",
      "business_area": "",
      "alias": "",
      "tag": "",
      "distance": [],
      "direction": "",
      "level": "POI"
    },
    "武汉站 → 南京南站": {
      "longitude": 114.424338,
      "latitude": 30.606981,
      "name": "武汉站",
      "formatted_address": "和平街道白云路武汉站",
      "address": "和平街道白云路",
      "pname": "湖北省",
      "cityname": "武汉市",
      "adname": "洪山区",
      "type": "交通设施服务;火车站;火车站",
      "typecode": "150200",
      "tel": "027-51172601",
      "adcode": "",
      "citycode": "",
      "business_area": "",
      "alias": "",
      "tag": "",
      "distance": [],
      "direction": "",
      "level": "POI"
    },
    "武汉站 → 南京南站@南京": {
      "longitude": 118.798034,
      "latitude": 31.968763,
      "name": "南京南站",
      "formatted_address": "雨花街道玉兰路98号南京南站",
      "address": "雨花街道玉兰路98号",
      "pname": "江苏省",
      "cityname": "南京市",
      "adname": "雨花台区",
      "type": "交通设施服务;火车站;火车站",
      "typecode": "150200",
      "tel": "025-85838335",
      "adcode": "",
      "citycode": "",
      "business_area": "",
      "alias": "",
      "tag": "",
      "distance": [],
      "direction": "",
      "level": "POI"
    },
    "钟山风景名胜区": {
      "longitude": 118.849989,
      "latitude": 32.047816,
      "name": "钟山风景名胜区",
      "formatted_address": "石象路7号钟山风景名胜区",
      "address": "石象路7号",
      "pname": "江苏省",
      "cityname": "南京市",
      "adname": "玄武区",
      "type": "风景名胜;风景名胜;国家级景点",
      "typecode": "110202",
      "tel": "025-84442880",
      "adcode": "",
      "citycode": "",
      "business_area": "",
      "alias": "",
      "tag": "",
      "distance": [],
      "direction": "",
      "level": "POI"
    },
    "钟山风景名胜区@南京": {
      "longitude": 118.849989,
      "latitude": 32.047816,
      "name": "钟山风景名胜区",
      "formatted_address": "石象路7号钟山风景名胜区",
      "address": "石象路7号",
      "pname": "江苏省",
      "cityname": "南京市",
      "adname": "玄武区",
      "type": "风景名胜;风景名胜;国家级景点",
      "typecode": "110202",
      "tel": "025-84442880",
      "adcode": "",
      "citycode": "",
      "business_area": "",
      "alias": "",
      "tag": "",
      "distance": [],
      "direction": "",
      "level": "POI"
    },
    "总统府": {
      "longitude": 118.797398,
      "latitude": 32.044228,
      "name": "总统府",
      "formatted_address": "长江路292号总统府",
      "address": "长江路292号",
      "pname": "江苏省",
      "cityname": "南京市",
      "adname": "玄武区",
      "type": "风景名胜;风景名胜;国家级景点",
      "typecode": "110202",
      "tel": "025-84578716;025-84578888",
      "adcode": "",
      "citycode": "",
      "business_area": "",
      "alias": "",
      "tag": "",
      "distance": [],
      "direction": "",
      "level": "POI"
    },
    "总统府@南京": {
      "longitude": 118.797398,
      "latitude": 32.044228,
      "name": "总统府",
      "formatted_address": "长江路292号总统府",
      "address": "长江路292号",
      "pname": "江苏省",
      "cityname": "南京市",
      "adname": "玄武区",
      "type": "风景名胜;风景名胜;国家级景点",
      "typecode": "110202",
      "tel": "025-84578716;025-84578888",
      "adcode": "",
      "citycode": "",
      "business_area": "",
      "alias": "",
      "tag": "",
      "distance": [],
      "direction": "",
      "level": "POI"
    },
    "好记·金陵宴@南京": {
      "longitude": 118.795682,
      "latitude": 32.044539,
      "name": "好记·金陵宴(总统府1912店)",
      "formatted_address": "长江路288号好记·金陵宴(总统府1912店)",
      "address": "长江路288号",
      "pname": "江苏省",
      "cityname": "南京市",
      "adname": "玄武区",
      "type": "餐饮服务;中餐厅;中餐厅",
      "typecode": "050100",
      "tel": "025-57083191;17502517179",
      "adcode": "",
      "citycode": "",
      "business_area": "",
      "alias": "",
      "tag": "",
      "distance": [],
      "direction": "",
      "level": "POI"
    },
    "玄武湖景区": {
      "longitude": 118.812688,
      "latitude": 32.069455,
      "name": "玄武湖景区",
      "formatted_address": "玄武门路1号钟山风景名胜区西侧玄武湖景区",
      "address": "玄武门路1号钟山风景名胜区西侧",
      "pname": "江苏省",
      "cityname": "南京市",
      "adname": "玄武区",
      "type": "风景名胜;风景名胜;国家级景点",
      "typecode": "110202",
      "tel": "025-83614286",
      "adcode": "",
      "citycode": "",
      "business_area": "",
      "alias": "",
      "tag": "",
      "distance": [],
      "direction": "",
      "level": "POI"
    },
    "玄武湖景区@南京": {
      "longitude": 118.812688,
      "latitude": 32.069455,
      "name": "玄武湖景区",
      "formatted_address": "玄武门路1号钟山风景名胜区西侧玄武湖景区",
      "address": "玄武门路1号钟山风景名胜区西侧",
      "pname": "江苏省",
      "cityname": "南京市",
      "adname": "玄武区",
      "type": "风景名胜;风景名胜;国家级景点",
      "typecode": "110202",
      "tel": "025-83614286",
      "adcode": "",
      "citycode": "",
      "business_area": "",
      "alias": "",
      "tag": "",
      "distance": [],
      "direction": "",
      "level": "POI"
    },
    "如家快捷酒店@南京": {
      "longitude": 118.780224,
      "latitude": 32.11184,
      "name": "如家酒店",
      "formatted_address": "幕府东路9号绿地缤纷广场7号楼(靠近路段五塘广场)如家酒店",
      "address": "幕府东路9号绿地缤纷广场7号楼(靠近路段五塘广场)",
      "pname": "江苏省",
      "cityname": "南京市",
      "adname": "鼓楼区",
      "type": "住宿服务;宾馆酒店;经济型连锁酒店",
      "typecode": "100105",
      "tel": [],
      "adcode": "",
      "citycode": "",
      "business_area": "",
      "alias": "",
      "tag": "",
      "distance": [],
      "direction": "",
      "level": "POI"
    },
    "如家快捷酒店": {
      "longitude": 116.373845,
      "latitude": 39.917881,
      "name": "如家商旅酒店(北京西单北大街店)",
      "formatted_address": "西单北大街18号(灵境胡同地铁站B东北口步行200米)如家商旅酒店(北京西单北大街店)",
      "address": "西单北大街18号(灵境胡同地铁站B东北口步行200米)",
      "pname": "北京市",
      "cityname": "北京市",
      "adname": "西城区",
      "type": "住宿服务;住宿服务相关;住宿服务相关",
      "typecode": "100000",
      "tel": "010-66057698;010-66057698,9",
      "adcode": "",
      "citycode": "",
      "business_area": "",
      "alias": "",
      "tag": "",
      "distance": [],
      "direction": "",
      "level": "POI"
    },
    "中山陵景区@南京": {
      "longitude": 118.854097,
      "latitude": 32.054508,
      "name": "中山陵景区",
      "formatted_address": "石象路7号中山陵景区",
      "address": "石象路7号",
      "pname": "江苏省",
      "cityname": "南京市",
      "adname": "玄武区",
      "type": "风景名胜;风景名胜;风景名胜",
      "typecode": "110200",
      "tel": [],
      "adcode": "",
      "citycode": "",
      "business_area": "",
      "alias": "",
      "tag": "",
      "distance": [],
      "direction": "",
      "level": "POI"
    },
    "中山陵景区": {
      "longitude": 118.854097,
      "latitude": 32.054508,
      "name": "中山陵景区",
      "formatted_address": "石象路7号中山陵景区",
      "address": "石象路7号",
      "pname": "江苏省",
      "cityname": "南京市",
      "adname": "玄武区",
      "type": "风景名胜;风景名胜;风景名胜",
      "typecode": "110200",
      "tel": [],
      "adcode": "",
      "citycode": "",
      "business_area": "",
      "alias": "",
      "tag": "",
      "distance": [],
      "direction": "",
      "level": "POI"
    },
    "南京禄口国际机场 → 武汉天河国际机场": {
      "longitude": 118.871181,
      "latitude": 31.731634,
      "name": "南京禄口国际机场",
      "formatted_address": "空港南路南京禄口国际机场",
      "address": "空港南路",
      "pname": "江苏省",
      "cityname": "南京市",
      "adname": "江宁区",
      "type": "交通设施服务;机场相关;飞机场",
      "typecode": "150104",
      "tel": "96066",
      "adcode": "",
      "citycode": "",
      "business_area": "",
      "alias": "",
      "tag": "",
      "distance": [],
      "direction": "",
      "level": "POI"
    },
    "南京禄口国际机场 → 武汉天河国际机场@南京": {
      "longitude": 118.871181,
      "latitude": 31.731634,
      "name": "南京禄口国际机场",
      "formatted_address": "空港南路南京禄口国际机场",
      "address": "空港南路",
      "pname": "江苏省",
      "cityname": "南京市",
      "adname": "江宁区",
      "type": "交通设施服务;机场相关;飞机场",
      "typecode": "150104",
      "tel": "96066",
      "adcode": "",
      "citycode": "",
      "business_area": "",
      "alias": "",
      "tag": "",
      "distance": [],
      "direction": "",
      "level": "POI"
    },
    "毛主席纪念堂@北京": {
      "longitude": 116.397815,
      "latitude": 39.902517,
      "name": "毛主席纪念堂",
      "formatted_address": "前门东大街11号(天安门广场人民英雄纪念碑南面)毛主席纪念堂",
      "address": "前门东大街11号(天安门广场人民英雄纪念碑南面)",
      "pname": "北京市",
      "cityname": "北京市",
      "adname": "东城区",
      "type": "风景名胜;风景名胜;纪念馆",
      "typecode": "110204",
      "tel": "010-65132277",
      "adcode": "",
      "citycode": "",
      "business_area": "",
      "alias": "",
      "tag": "",
      "distance": [],
      "direction": "",
      "level": "POI"
    },
    "上海浦东国际机场 → 北京大兴国际机场": {
      "longitude": 121.808682,
      "latitude": 31.142267,
      "name": "上海浦东国际机场",
      "formatted_address": "迎宾大道6000号上海浦东国际机场",
      "address": "迎宾大道6000号",
      "pname": "上海市",
      "cityname": "上海市",
      "adname": "浦东新区",
      "type": "交通设施服务;机场相关;飞机场",
      "typecode": "150104",
      "tel": "021-68347575;021-96081388",
      "adcode": "",
      "citycode": "",
      "business_area": "",
      "alias": "",
      "tag": "",
      "distance": [],
      "direction": "",
      "level": "POI"
    },
    "毛主席纪念堂": {
      "longitude": 116.397815,
      "latitude": 39.902517,
      "name": "毛主席纪念堂",
      "formatted_address": "前门东大街11号(天安门广场人民英雄纪念碑南面)毛主席纪念堂",
      "address": "前门东大街11号(天安门广场人民英雄纪念碑南面)",
      "pname": "北京市",
      "cityname": "北京市",
      "adname": "东城区",
      "type": "风景名胜;风景名胜;纪念馆",
      "typecode": "110204",
      "tel": "010-65132277",
      "adcode": "",
      "citycode": "",
      "business_area": "",
      "alias": "",
      "tag": "",
      "distance": [],
      "direction": "",
      "level": "POI"
    },
    "全聚德@北京": {
      "longitude": 116.412032,
      "latitude": 39.912163,
      "name": "全聚德(王府井店)",
      "formatted_address": "帅府园胡同9号全聚德(王府井店)",
      "address": "帅府园胡同9号",
      "pname": "北京市",
      "cityname": "北京市",
      "adname": "东城区",
      "type": "餐饮服务;中餐厅;老字号|餐饮服务;中餐厅;北京菜",
      "typecode": "050116|050111",
      "tel": "010-65228384;010-65253310",
      "adcode": "",
      "citycode": "",
      "business_area": "",
      "alias": "",
      "tag": "",
      "distance": [],
      "direction": "",
      "level": "POI"
    },
    "南锣鼓巷@北京": {
      "longitude": 116.402394,
      "latitude": 39.937182,
      "name": "南锣鼓巷",
      "formatted_address": "交道口街道南大街(南锣鼓巷地铁站E西北口旁)南锣鼓巷",
      "address": "交道口街道南大街(南锣鼓巷地铁站E西北口旁)",
      "pname": "北京市",
      "cityname": "北京市",
      "adname": "东城区",
      "type": "风景名胜;风景名胜;风景名胜",
      "typecode": "110200",
      "tel": "15501256033",
      "adcode": "",
      "citycode": "",
      "business_area": "",
      "alias": "",
      "tag": "",
      "distance": [],
      "direction": "",
      "level": "POI"
    },
    "全聚德": {
      "longitude": 116.385072,
      "latitude": 39.899292,
      "name": "全聚德烤鸭店(和平门店)",
      "formatted_address": "前门西大街14号楼(和平门地铁站C2东南口步行80米)全聚德烤鸭店(和平门店)",
      "address": "前门西大街14号楼(和平门地铁站C2东南口步行80米)",
      "pname": "北京市",
      "cityname": "北京市",
      "adname": "西城区",
      "type": "餐饮服务;中餐厅;老字号|餐饮服务;中餐厅;北京菜",
      "typecode": "050116|050111",
      "tel": "010-83193101;010-83193102",
      "adcode": "",
      "citycode": "",
      "business_area": "",
      "alias": "",
      "tag": "",
      "distance": [],
      "direction": "",
      "level": "POI"
    },
    "南锣鼓巷": {
      "longitude": 116.402394,
      "latitude": 39.937182,
      "name": "南锣鼓巷",
      "formatted_address": "交道口街道南大街(南锣鼓巷地铁站E西北口旁)南锣鼓巷",
      "address": "交道口街道南大街(南锣鼓巷地铁站E西北口旁)",
      "pname": "北京市",
      "cityname": "北京市",
      "adname": "东城区",
      "type": "风景名胜;风景名胜;风景名胜",
      "typecode": "110200",
      "tel": "15501256033",
      "adcode": "",
      "citycode": "",
      "business_area": "",
      "alias": "",
      "tag": "",
      "distance": [],
      "direction": "",
      "level": "POI"
    },
    "7天连锁酒店@北京": {
      "longitude": 116.370236,
      "latitude": 39.865704,
      "name": "7天连锁酒店(北京南站店)",
      "formatted_address": "开阳里三街五区4号楼7天连锁酒店(北京南站店)",
      "address": "开阳里三街五区4号楼",
      "pname": "北京市",
      "cityname": "北京市",
      "adname": "丰台区",
      "type": "住宿服务;宾馆酒店;经济型连锁酒店",
      "typecode": "100105",
      "tel": "010-83538399",
      "adcode": "",
      "citycode": "",
      "business_area": "",
      "alias": "",
      "tag": "",
      "distance": [],
      "direction": "",
      "level": "POI"
    },
    "7天连锁酒店": {
      "longitude": 116.370236,
      "latitude": 39.865704,
      "name": "7天连锁酒店(北京南站店)",
      "formatted_address": "开阳里三街五区4号楼7天连锁酒店(北京南站店)",
      "address": "开阳里三街五区4号楼",
      "pname": "北京市",
      "cityname": "北京市",
      "adname": "丰台区",
      "type": "住宿服务;宾馆酒店;经济型连锁酒店",
      "typecode": "100105",
      "tel": "010-83538399",
      "adcode": "",
      "citycode": "",
      "business_area": "",
      "alias": "",
      "tag": "",
      "distance": [],
      "direction": "",
      "level": "POI"
    },
    "天安门广场": {
      "longitude": 116.397755,
      "latitude": 39.903182,
      "name": "天安门广场",
      "formatted_address": "东长安街天安门广场",
      "address": "东长安街",
      "pname": "北京市",
      "cityname": "北京市",
      "adname": "东城区",
      "type": "风景名胜;风景名胜;红色景区|风景名胜;公园广场;城市广场",
      "typecode": "110210|110105",
      "tel": "010-63095745",
      "adcode": "",
      "citycode": "",
      "business_area": "",
      "alias": "",
      "tag": "",
      "distance": [],
      "direction": "",
      "level": "POI"
    },
    "中央礼品文物管理中心": {
      "longitude": 116.410901,
      "latitude": 39.897847,
      "name": "中央礼品文物管理中心",
      "formatted_address": "西兴隆街1号中央礼品文物管理中心",
      "address": "西兴隆街1号",
      "pname": "北京市",
      "cityname": "北京市",
      "adname": "东城区",
      "type": "科教文化服务;博物馆;博物馆",
      "typecode": "140100",
      "tel": "010-55626345",
      "adcode": "",
      "citycode": "",
      "business_area": "",
      "alias": "",
      "tag": "",
      "distance": [],
      "direction": "",
      "level": "POI"
    },
    "恭王府博物馆": {
      "longitude": 116.386315,
      "latitude": 39.937222,
      "name": "恭王府博物馆",
      "formatted_address": "前海西街17号恭王府博物馆",
      "address": "前海西街17号",
      "pname": "北京市",
      "cityname": "北京市",
      "adname": "西城区",
      "type": "风景名胜;风景名胜;国家级景点",
      "typecode": "110202",
      "tel": "010-83288149",
      "adcode": "",
      "citycode": "",
      "business_area": "",
      "alias": "",
      "tag": "",
      "distance": [],
      "direction": "",
      "level": "POI"
    },
    "北京首都国际机场 → 上海浦东国际机场": {
      "longitude": 116.602545,
      "latitude": 40.080213,
      "name": "北京首都国际机场",
      "formatted_address": "首都机场路北京首都国际机场",
      "address": "首都机场路",
      "pname": "北京市",
      "cityname": "北京市",
      "adname": "朝阳区",
      "type": "交通设施服务;机场相关;飞机场",
      "typecode": "150104",
      "tel": "010-96158",
      "adcode": "",
      "citycode": "",
      "business_area": "",
      "alias": "",
      "tag": "",
      "distance": [],
      "direction": "",
      "level": "POI"
    },
    "天安门广场@北京": {
      "longitude": 116.397755,
      "latitude": 39.903182,
      "name": "天安门广场",
      "formatted_address": "东长安街天安门广场",
      "address": "东长安街",
      "pname": "北京市",
      "cityname": "北京市",
      "adname": "东城区",
      "type": "风景名胜;风景名胜;红色景区|风景名胜;公园广场;城市广场",
      "typecode": "110210|110105",
      "tel": "010-63095745",
      "adcode": "",
      "citycode": "",
      "business_area": "",
      "alias": "",
      "tag": "",
      "distance": [],
      "direction": "",
      "level": "POI"
    },
    "中央礼品文物管理中心@北京": {
      "longitude": 116.410901,
      "latitude": 39.897847,
      "name": "中央礼品文物管理中心",
      "formatted_address": "西兴隆街1号中央礼品文物管理中心",
      "address": "西兴隆街1号",
      "pname": "北京市",
      "cityname": "北京市",
      "adname": "东城区",
      "type": "科教文化服务;博物馆;博物馆",
      "typecode": "140100",
      "tel": "010-55626345",
      "adcode": "",
      "citycode": "",
      "business_area": "",
      "alias": "",
      "tag": "",
      "distance": [],
      "direction": "",
      "level": "POI"
    },
    "恭王府博物馆@北京": {
      "longitude": 116.386315,
      "latitude": 39.937222,
      "name": "恭王府博物馆",
      "formatted_address": "前海西街17号恭王府博物馆",
      "address": "前海西街17号",
      "pname": "北京市",
      "cityname": "北京市",
      "adname": "西城区",
      "type": "风景名胜;风景名胜;国家级景点",
      "typecode": "110202",
      "tel": "010-83288149",
      "adcode": "",
      "citycode": "",
      "business_area": "",
      "alias": "",
      "tag": "",
      "distance": [],
      "direction": "",
      "level": "POI"
    }
  },
  "last_updated": "2025-07-04T19:41:03.096702",
  "version": "1.0"
}