name,id,type,address,rating,price,ood_type,open_time,indoor,latitude,longitude,phone,photos,city
钱江世纪公园,B0FFHJTKKP,风景名胜;公园广场;公园,观澜路1号,,,,,,30.241346,120.233607,,"['http://aos-cdn-image.amap.com/sns/ugccomment/59beb1e9-9cda-4cd4-8c44-d3b51d9aff36.jpg', 'https://aos-comment.amap.com/B0FFHJTKKP/comment/e4e34388b43955fb1af8a37d09c681f8_2048_2048_80.jpg', 'https://aos-comment.amap.com/B0FFHJTKKP/comment/faef38a93c70e9aeda3ee71bd7f186b3_2048_2048_80.jpg']",杭州
清河坊历史文化特色街区,B023B07SJZ,风景名胜;风景名胜;国家级景点,河坊街180号,,,,,,30.239827,120.169899,,"['http://store.is.autonavi.com/showpic/e7a956f2beba64afa31364a6858dac82', 'http://store.is.autonavi.com/showpic/fc632a87a09703d2de4492829fbbc3b5', 'http://store.is.autonavi.com/showpic/dd9e27c45d8b1904a4ab57989a34cf0a']",杭州
五柳巷历史街区,B0FFFA3PD5,风景名胜;风景名胜;风景名胜,小营街道斗富二桥西河下9号附近,,,,,,30.242162,120.176615,,"['http://store.is.autonavi.com/showpic/86a18cfb032e58530262ce8824bb98f7', 'https://aos-comment.amap.com/B0FFFA3PD5/comment/ceb1d43e52ff743e21c55ee90551ab90_2048_2048_80.jpg', 'https://aos-comment.amap.com/B0FFFA3PD5/comment/a53fdf97f5110daf4f0568fd2d6181c2_2048_2048_80.jpg']",杭州
钱江新城灯光秀,B0FFHKQ7F5,风景名胜;风景名胜;风景名胜,新业路39号(市民中心地铁站M1口或N2口),,,,,,30.244481,120.215428,,"['http://aos-cdn-image.amap.com/sns/ugccomment/c5141729-8737-49ff-92e2-4ad9fdc0669d.jpg', 'https://aos-comment.amap.com/B0FFHKQ7F5/comment/content_media_external_images_media_1000052455_ss__1732426004082_33626021.jpg', 'https://aos-comment.amap.com/B0FFHKQ7F5/comment/1e943e58801cb5e2726d7214c327df3d_2048_2048_80.jpg']",杭州
CBD公园,B023B0BIO8,风景名胜;公园广场;公园,五星路181号,,,,,,30.237933,120.212285,,"['https://aos-comment.amap.com/B023B0BIO8/comment/a00a992950612935fd15c5ce31af9d39_2048_2048_80.jpg', 'https://aos-comment.amap.com/B023B0BIO8/comment/979d20a2ad7f6423f6cd9c9f3f463c73_2048_2048_80.jpg', 'https://aos-comment.amap.com/B023B0BIO8/comment/47710da4752f70c5a995d810ebdc124a_2048_2048_80.jpg']",杭州
杭州西湖风景名胜区-断桥残雪,B023B01EE6,风景名胜;风景名胜;国家级景点,龙井路1号杭州西湖风景名胜区内(东北角),,,,,,30.258106,120.151299,,"['http://store.is.autonavi.com/showpic/291127f3f2d2ceba0de575038ad6c885', 'http://aos-cdn-image.amap.com/sns/ugccomment/a1f6ed63-cdf2-4382-99a1-d8719297db86.jpg', 'http://aos-cdn-image.amap.com/sns/ugccomment/a514e32c-fc37-4cce-9506-7b828165a166.jpg']",杭州
杭州博物馆,B0FFFWQGI8,科教文化服务;博物馆;博物馆,粮道山18号,,,,,,30.239091,120.166525,,"['http://store.is.autonavi.com/showpic/0e1b38f070c1fcfc580cf7c150ff6db9', 'http://store.is.autonavi.com/showpic/d285c6541dee192598c1b59033df67d9', 'http://store.is.autonavi.com/showpic/69f071868b115ba550d370d8f4481e0d']",杭州
吴山景区,B023B17WXC,风景名胜;风景名胜;风景名胜,清波街道吴山广场2号杭州吴山艺术团附近,,,,,,30.23412,120.165134,,"['http://store.is.autonavi.com/showpic/9be47b84fb5dd43bfb4f3238cea21871', 'http://store.is.autonavi.com/showpic/09994ee5f41df9880b2ce2f9c0406dad', 'http://store.is.autonavi.com/showpic/a01274740faa41c58731620f68468364']",杭州
胡雪岩故居,B023B0284D,风景名胜;风景名胜;纪念馆,元宝街18号,,,,,,30.237273,120.172906,,"['http://store.is.autonavi.com/showpic/b326d6f2fc14213945e5925cbe65491d', 'http://aos-cdn-image.amap.com/sns/ugccomment/5ef7df70-b49e-47d8-9507-12f5ac4d50c5.JPG', 'http://store.is.autonavi.com/showpic/94adba298a0358aafb5f0b94799429eb']",杭州
杭州西湖风景名胜区,B023B13L9M,风景名胜;风景名胜;国家级景点,西湖街道龙井路1号,,,,,,30.222724,120.121288,,"['http://store.is.autonavi.com/showpic/046f7db069e380fdc29375807debee83', 'http://store.is.autonavi.com/showpic/28440e82934e69436f458b567d35fcb5', 'http://store.is.autonavi.com/showpic/34915fc5cba49b64710e028aa3811753']",杭州
湖滨步行街,B0FFL9RQ5O,购物服务;特色商业街;步行街,凤起路539-4号(龙翔桥地铁站C口步行120米),,,,,,30.25414,120.162957,,"['http://store.is.autonavi.com/showpic/38ed16d8a03d858a053ee774766900c1', 'https://aos-comment.amap.com/B0FFL9RQ5O/comment/3a9b56b7b6e5bd36d77457ecd14c6eac_2048_2048_80.jpg', 'http://store.is.autonavi.com/showpic/93a18f2d6539dc4bae98463a506e43a6']",杭州
雷峰塔景区,B023B09LKR,风景名胜;风景名胜;国家级景点,南山路15号,,,,,,30.230934,120.148849,,"['http://store.is.autonavi.com/showpic/58fbc3bf5460862ef2056ae1aa053754', 'http://store.is.autonavi.com/showpic/df5fc383b00d7a4ac2948df8abbb9094', 'http://store.is.autonavi.com/showpic/066347d344b0cb6c8c5e305627524037']",杭州
杭州基督教会崇一堂,B023B065OH,风景名胜;风景名胜;教堂,新塘路26号(近庆春广场),,,,,,30.259353,120.208778,,"['http://store.is.autonavi.com/showpic/a1e5c5393aac49b86aa10948b299c766', 'http://store.is.autonavi.com/showpic/0c59263b94b270f1dd82d2123012ecbd', 'http://store.is.autonavi.com/showpic/2ac38f04c46cff9dc40b48c6ecf631ef']",杭州
杭州西湖风景名胜区-湖滨公园,B023B05MLT,风景名胜;公园广场;公园,龙井路1号杭州西湖风景名胜区内(东北角),,,,,,30.256583,120.158818,,"['https://store.is.autonavi.com/showpic/04A76AB46308410FBDAF3C8577E67275', 'http://store.is.autonavi.com/showpic/b16eef9ee2b70e46b4aaf314ee111a47', 'http://store.is.autonavi.com/showpic/c2e01bcb710be83244954c6a0f3b2bea']",杭州
鼓楼,B023B015D8,风景名胜;风景名胜;风景名胜,中山南路501号(近十五奎巷),,,,,,30.237994,120.171386,,"['http://store.is.autonavi.com/showpic/b29ed6b0ca70505ed3d5b78283f17244', 'http://store.is.autonavi.com/showpic/0467f89aac289ab0e12d329224f8d6c0', 'http://store.is.autonavi.com/showpic/d9262bc06a266796280a30cfd0ac5cea']",杭州
西湖-景区音乐喷泉,B0FFG977HY,风景名胜;风景名胜;国家级景点,杭州西湖风景名胜区内(龙翔桥地铁站C口步行230米),,,,,,30.253911,120.161115,,"['http://store.is.autonavi.com/showpic/e535f5650de18a824a7fca865d0f66d3', 'http://store.is.autonavi.com/showpic/d569ad484bb379dac3010b7736c8c3d5', 'http://store.is.autonavi.com/showpic/98888dc4de1de130e7c1f113ae257cd4']",杭州
江和美海洋公园,B0FFH0LYNK,风景名胜;公园广场;公园广场,钱江路599号(三堡地铁站B1口旁),,,,,,30.268541,120.227506,,"['http://store.is.autonavi.com/showpic/10ee68fa08660d93523809d274559fb2', 'http://store.is.autonavi.com/showpic/3c80f6efa97e76fb7cb36aa489c4ec4c?operate=original&query_type=oss&operate_gif=1', 'https://aos-comment.amap.com/B0FFH0LYNK/comment/content_media_external_file_8018_1745853671118_53020238.jpg']",杭州
西湖文化广场,B023B0BIT8,风景名胜;公园广场;城市广场,环城北路47号,,,,,,30.276652,120.163755,,"['http://store.is.autonavi.com/showpic/a92803e8906575768c2436d05ae704ab', 'http://aos-cdn-image.amap.com/sns/ugccomment/e3dbdc0a-c31b-404f-aab5-43788f9d10e2.jpg', 'http://store.is.autonavi.com/showpic/7a739c6e0826173f21aaaef0bec713c7']",杭州
武林广场,B023B02841,风景名胜;公园广场;城市广场,天水街道体育场路208号,,,,,,30.271001,120.163325,,"['https://aos-comment.amap.com/B023B02841/comment/0dfe0056fd6e90655a53e92624c5cf64_2048_2048_80.jpg', 'https://aos-comment.amap.com/B023B02841/comment/e2657db075c2c5aede5e8a6b5cff713e_2048_2048_80.jpg', 'https://aos-comment.amap.com/B023B02841/comment/3e0e1e8ea92b8f516342571f93bb5ede_2048_2048_80.jpg']",杭州
西湖天地,B023B082T5,风景名胜;风景名胜相关;旅游景点,南山路147号9C,,,,,,30.247034,120.159282,,"['http://store.is.autonavi.com/showpic/e9219d541e22397ff3306be9f4f6301b', 'http://store.is.autonavi.com/showpic/976d6279ac8c896d02fda5f385fca09d', 'https://aos-comment.amap.com/B023B082T5/comment/671a2bcd2a8bc3f46a96aa88a1cc1c3a_2048_2048_80.jpg']",杭州
市民广场,B023B0BGF2,风景名胜;公园广场;城市广场,新业路(市民中心地铁站L口步行100米),,,,,,30.244705,120.213056,,"['http://store.is.autonavi.com/showpic/2173cd22c1f5af7ff73546a74beba09d', 'https://aos-comment.amap.com/B023B0BGF2/comment/content_media_external_images_media_30053_1677513963248_fcb42048.jpg', 'http://store.is.autonavi.com/showpic/027d9bbe7a78899a7d89e778bc6a811b']",杭州
杭州西湖风景名胜区-柳浪闻莺,B023B0247C,风景名胜;风景名胜;风景名胜,南山路87号,,,,,,30.240389,120.156326,,"['http://store.is.autonavi.com/showpic/5aa2babe8cf12daa266850322dadc9e5', 'http://store.is.autonavi.com/showpic/02eef2a3bf000ccb6bcb3a4e176e37e4', 'http://store.is.autonavi.com/showpic/9f923dbf4ac71ee65fe4f1f2912f6a9b']",杭州
吴山广场,B023B0A5KT,风景名胜;公园广场;城市广场,延安南路1号附近,,,,,,30.239183,120.163686,,"['https://aos-comment.amap.com/B023B0A5KT/comment/fbf373f163337120697f03670e08baae_2048_2048_80.jpg', 'https://aos-comment.amap.com/B023B0A5KT/comment/465c5641dfa473e3409e8449eda808b9_2048_2048_80.jpg', 'https://aos-comment.amap.com/B023B0A5KT/comment/60a89e82efc46f4a0768b63e94db5daf_2048_2048_80.jpg']",杭州
吴山景区-城隍阁景区,B0FFG49JKW,风景名胜;风景名胜;风景名胜,吴山3号(吴山广场山顶),,,,,,30.236413,120.164726,,"['http://aos-cdn-image.amap.com/sns/ugccomment/ae6320a8-0b94-4c53-b285-7030223e9219.jpg', 'http://store.is.autonavi.com/showpic/0b0ba7f3ceb6f1f9fd3f606ac3312eb4', 'http://store.is.autonavi.com/showpic/f68f4b944341e8208ae802410693af48']",杭州
南宋德寿宫遗址博物馆,B0HGNGK3FG,科教文化服务;博物馆;博物馆,望江路228-264号(江城路地铁站E口步行430米),,,,,,30.238114,120.173467,,"['http://store.is.autonavi.com/showpic/e6ad74fe111781ace3615d93423e57fb', 'http://store.is.autonavi.com/showpic/5ca5705d8e726d4dca640506ecac6aa1', 'http://store.is.autonavi.com/showpic/b5305319d5621cf70d35dbb8b0b5c6cf']",杭州
钱江龙,B023B0ACA0,风景名胜;风景名胜;风景名胜,江汉路闻涛路交叉口射潮广场,,,,,,30.211897,120.202578,,"['https://aos-comment.amap.com/B023B0ACA0/comment/36dbc356a42a540077f3e36098241550_2048_2048_80.jpg', 'https://aos-comment.amap.com/B023B0ACA0/comment/4a2a48966588273d0074a526601f4492_2048_2048_80.jpg', 'https://aos-comment.amap.com/B023B0ACA0/comment/d8934cd88be624ec3127a055a3bc5515_2048_2048_80.jpg']",杭州
杭州钱塘江夜游(滨江码头),B0HATZZAXS,风景名胜;风景名胜相关;旅游景点,闻涛路滨江码头,,,,,,30.211689,120.200852,,"['http://store.is.autonavi.com/showpic/0b1eca846c2a60140df5ac17b3b57e8e', 'http://store.is.autonavi.com/showpic/0d21cbf57787a557c6d9d11c07a731cc', 'http://store.is.autonavi.com/showpic/028dd0ae21fa83c55efe348000a90dc2']",杭州
杭州西湖风景名胜区-涌金公园,B023B01D2F,风景名胜;公园广场;公园,杭州西湖风景名胜区内(东北角),,,,,,30.245915,120.160139,,"['http://store.is.autonavi.com/showpic/88ff5f0df835d4c8b5be33aafd1948f9', 'http://store.is.autonavi.com/showpic/c3dc4cddbfd0a733ae4e5fdcc6569db3', 'https://aos-comment.amap.com/B023B01D2F/comment/E25845A6_B731_4141_A1DC_3274332F6CF5_L0_001_1500_200_1749897854992_96364225.jpg']",杭州
少年宫广场,B0FFH15ESB,风景名胜;公园广场;公园广场,北山街与环城西路交汇处西150米,,,,,,30.260903,120.155558,,"['https://aos-comment.amap.com/B0FFH15ESB/comment/bacd1ef7b1699a90be99e33073b8e011_2048_2048_80.jpg', 'https://aos-comment.amap.com/B0FFH15ESB/comment/647b49a32f9bae766ab773fedf928291_2048_2048_80.jpg', 'https://aos-comment.amap.com/B0FFH15ESB/comment/789689947519338474f3ba11522d23e9_2048_2048_80.jpg']",杭州
杭州西湖风景名胜区-断桥,B0FFFPPTEL,风景名胜;风景名胜;风景名胜,北山街与白堤交叉口,,,,,,30.258151,120.151347,,"['http://store.is.autonavi.com/showpic/69e9b2188cacb3f4eb1eacde29b7787e', 'https://store.is.autonavi.com/showpic/1DF9AECDBE2546E4841CB4D79F00BA42', 'http://aos-cdn-image.amap.com/sns/ugccomment/ea66e6b2-5ee3-402e-bd0c-9f130628ba70.jpg']",杭州
杭州奥体中心码头,B0FFKK6B26,风景名胜;风景名胜;风景名胜,闻涛路与飞虹路交叉口西120米,,,,,,30.229228,120.222606,,"['https://aos-comment.amap.com/B0FFKK6B26/comment/content_media_external_images_media_42112_ss__1742473547993_84207305.jpg', 'https://aos-comment.amap.com/B0FFKK6B26/comment/content_media_external_images_media_1000006709_ss__1742138727415_30960069.jpg', 'https://aos-comment.amap.com/B0FFKK6B26/comment/content_media_external_images_media_42108_ss__1742473548057_41717219.jpg']",杭州
钱江新城·森林公园,B023B07HMV,风景名胜;公园广场;公园,四季青街道五星路181号,,,,,,30.239734,120.210112,,"['http://store.is.autonavi.com/showpic/e918600437b4ad630c851ae885a9f99c', 'https://aos-comment.amap.com/B023B07HMV/comment/d7c83bc048634c0b06d651f174199e02_2048_2048_80.jpg', 'https://aos-comment.amap.com/B023B07HMV/comment/46733be6003682378abf0042e1bef02e_2048_2048_80.jpg']",杭州
杭州西湖风景名胜区-万松书院,B023B015D9,风景名胜;风景名胜;风景名胜,万松岭路81号,,,,,,30.226809,120.160498,,"['http://store.is.autonavi.com/showpic/72ddf152124586e0a6a8d9832daec4ef', 'http://store.is.autonavi.com/showpic/310e83a4df473480c1b8794b79b72631', 'http://store.is.autonavi.com/showpic/f774e710b3416334ec66b59b2600a630']",杭州
西湖游船-二公园码头,B0FFG03EXP,交通设施服务;港口码头;港口码头,湖滨路15号(龙翔桥地铁站C口步行320米),,,,,,30.252504,120.162016,,"['https://aos-comment.amap.com/B0FFG03EXP/comment/content_media_external_images_media_100007475_1726825083006_48092962.jpg', 'https://aos-comment.amap.com/B0FFG03EXP/comment/6e3ab2268d0c42300242c01cf55aeae1_2048_2048_80.jpg', 'https://aos-comment.amap.com/B0FFG03EXP/comment/c61802ea3b34bba671d3f842322147bf_2048_2048_80.jpg']",杭州
太子湾公园,B023B02074,风景名胜;公园广场;公园,南星街道南山路1-1号,,,,,,30.22547,120.142177,,"['http://store.is.autonavi.com/showpic/b7fdcef220d9434e6b0dfee47340ecfe', 'http://store.is.autonavi.com/showpic/1e4bf80d2e34cd3e54a9428184bf4fde', 'http://store.is.autonavi.com/showpic/1a19a0a0afd7d36162a55bed820e7551']",杭州
西溪国家湿地公园,B023B06P06,风景名胜;风景名胜;国家级景点,天目山路518号,,,,,,30.255079,120.061159,,"['http://store.is.autonavi.com/showpic/ee8ba4fd213aa0ee5605e41415921500', 'http://store.is.autonavi.com/showpic/5723d86c8f567ebcbe763c66cb8258f6', 'http://store.is.autonavi.com/showpic/2c3a5afd0689d0c6761107aa8ca6618d']",杭州
浙江自然博物院,B023B15DKJ,科教文化服务;博物馆;博物馆,西湖文化广场6号,,,,,,30.276814,120.164581,,"['http://store.is.autonavi.com/showpic/fd5f152adebfc82a7f30b097677bb735', 'http://store.is.autonavi.com/showpic/551576707730d4e7cef9c69ba58082f6', 'http://store.is.autonavi.com/showpic/8e75f7a48f3688a8f997b64c32968905']",杭州
杭州亚运会博物馆,B0JAO7X58K,科教文化服务;博物馆;博物馆,杭州奥体中心体育场西南角B1层,,,,,,30.228256,120.229057,,"['https://aos-comment.amap.com/B0JAO7X58K/comment/content_media_external_file_100000072_1746837827124_87796264.jpg', 'https://aos-comment.amap.com/B0JAO7X58K/comment/81cdbca1ab4c8a2cf091f07603cff9e8_2048_2048_80.jpg', 'https://aos-comment.amap.com/B0JAO7X58K/comment/content_media_external_images_media_1001131915_ss__1728699383480_92947306.jpg']",杭州
CBD公园,B0GR3AJKMC,风景名胜;公园广场;公园,之江路与庆春东路交叉口南60米,,,,,,30.25025,120.222806,,"['https://aos-comment.amap.com/B0GR3AJKMC/comment/9c872a496a7985eebb7ac8bad8b2e249_2048_2048_80.jpg', 'http://store.is.autonavi.com/showpic/cb827dc17cdc5291d84ad21205b7d695', 'https://aos-comment.amap.com/B0GR3AJKMC/comment/ec536b8a588635abf1f6bafbfd483d89_2048_2048_80.jpg']",杭州
灵隐寺,B023B02842,风景名胜;风景名胜;国家级景点,法云弄1号,,,,,,30.240826,120.101406,,"['http://store.is.autonavi.com/showpic/4aa0a6a1b6ee72c9833441f363cbb43a', 'http://store.is.autonavi.com/showpic/c7cccce2249dbb7aa013ee0b06888e9d', 'http://store.is.autonavi.com/showpic/69e2dbe5322886d53ed57057e9ab5514']",杭州
浙江省博物馆(孤山馆区),B023B06XVX,科教文化服务;博物馆;博物馆,孤山路25号,,,,,,30.251243,120.143778,,"['http://store.is.autonavi.com/showpic/9cb883411f7c9ff49fb41d3d695839ce', 'http://store.is.autonavi.com/showpic/3681e5491f4333d4140a03c4c0e24ae5', 'http://store.is.autonavi.com/showpic/143d5609fdd06f9c78ce71fd952f5323']",杭州
飞来峰,B023B05MJE,风景名胜;风景名胜;风景名胜,西湖街道灵隐街道灵隐路法云弄1号,,,,,,30.239119,120.101101,,"['http://store.is.autonavi.com/showpic/439cd2ebb79899f4b2cc53e60e061515', 'http://store.is.autonavi.com/showpic/032d501b863f6eb0ee215d5f05356016', 'http://store.is.autonavi.com/showpic/37bf504afd01036f593e3f8366148cf3']",杭州
杭州西湖风景名胜区-敕建净慈禅寺,B023B015DA,风景名胜;风景名胜;寺庙道观,南山路56号,,,,,,30.228643,120.149165,,"['http://store.is.autonavi.com/showpic/06041c3bfcfa59b0d4c6e2d97c221664', 'https://aos-comment.amap.com/B023B015DA/comment/content_media_external_images_media_1000025029_ss__1747712930049_31995934.jpg', 'http://store.is.autonavi.com/showpic/7d0d14d37c73430a55e9621e1cd9a3f9']",杭州
杭州西湖风景名胜区苏堤,B023B0AC72,风景名胜;风景名胜;风景名胜,龙井路1号杭州西湖风景名胜区内(东侧),,,,,,30.2287,120.144497,,"['http://store.is.autonavi.com/showpic/f19d171a36dfad3ba9aff4d943d15513', 'http://store.is.autonavi.com/showpic/32b9cf5444f151c2335ca8b35850fa8a', 'http://store.is.autonavi.com/showpic/624644d00b7e825a6293737c9ccb55da']",杭州
杭州西湖风景名胜区宝石山,B023B0224D,风景名胜;风景名胜;风景名胜,曙光路43附近,,,,,,30.259804,120.140608,,"['http://store.is.autonavi.com/showpic/7db7ba81102cc6c24cdf178294cd0860', 'http://store.is.autonavi.com/showpic/92931e6a88a450b077cddb570aa76035', 'http://store.is.autonavi.com/showpic/00ed729f44f8613ee1ecdb93d10370f4']",杭州
杭州西湖风景名胜区-钱王祠,B0FFFESC91,风景名胜;风景名胜;风景名胜,南山路11号,,,,,,30.242848,120.157932,,"['https://store.is.autonavi.com/showpic/39F597D26D5146AD93E0C39FB01F5E5D', 'https://store.is.autonavi.com/showpic/22847971F6B74ED6827A4596B9AF8FDF', 'http://store.is.autonavi.com/showpic/ab2561b79336da3fd1c99c2a24d541ca']",杭州
杭州西湖风景名胜区-花港观鱼,B023B023B2,风景名胜;风景名胜;风景名胜,西山路5-1号,,,,,,30.230233,120.139095,,"['http://store.is.autonavi.com/showpic/36081114b697fba22f47ac146f8fa948', 'http://store.is.autonavi.com/showpic/70ee6096dde2924a555d8bbadd355dbb', 'http://store.is.autonavi.com/showpic/cc5819e13bfff0f99143822f7760a8e8']",杭州
西子驿曲院风荷,B023B0253E,风景名胜;风景名胜;风景名胜,杭州西湖风景名胜区杨公堤38号,,,,,,30.249287,120.133333,,"['http://store.is.autonavi.com/showpic/93e5dfc496dbaf4e4982b83aaf75c3c2', 'http://store.is.autonavi.com/showpic/598b7c218125fe21e619a3a28f744e1e', 'http://store.is.autonavi.com/showpic/69cc407c57d44a1fb8b58352e32129a2']",杭州
城市阳台江堤步道,B0HB399RBD,风景名胜;风景名胜相关;旅游景点,四季青街道之江路1122号,,,,,,30.24515,120.219288,,"['https://aos-comment.amap.com/B0HB399RBD/comment/9bcf936b301debde7a2cca2c5e2ec52c_2048_2048_80.jpg', 'https://aos-comment.amap.com/B0HB399RBD/comment/763eb71a49870b49d73a473b5469f0e5_2048_2048_80.jpg', 'https://aos-comment.amap.com/B0HB399RBD/comment/content_media_external_file_221890_ss__1750410169010_68918901.jpg']",杭州
杭州西湖风景名胜区-三潭印月,B023B0283D,风景名胜;风景名胜;风景名胜,杭州西湖风景名胜区内(东北角),,,,,,30.238845,120.145369,,"['http://store.is.autonavi.com/showpic/51ae752f732cc261577798e7fe0a2f1a', 'http://store.is.autonavi.com/showpic/6e4552f2bb6bfd72b296f1948e553af3', 'https://store.is.autonavi.com/showpic/5880A36FB6E143BE86C71E402CE03EAC']",杭州
