id,Name,Type,Latitude,Longitude,dateDesc,OpenTime,EndTime,Price,RecommendMinTime,RecommendMaxTime
0,世界之窗,游乐园/体育娱乐,22.540746,113.979399,全年,09:30,21:30,115.0,2.0,3.0
1,锦绣中华民俗村,文化旅游区,22.537131,113.995003,全年,10:00,21:00,69.0,0.5,2.0
2,深圳平安金融中心云际观光层,人文景观,22.538844,114.062186,全年,10:00,20:00,180.0,0.5,1.5
3,深圳欢乐谷,游乐园/体育娱乐,22.548012,113.986939,全年,10:00,19:00,130.0,0.5,1.5
4,深圳野生动物园,游乐园/体育娱乐,22.602723,113.97699,全年,09:30,18:00,99.0,1.5,2.0
5,东部华侨城,游乐园/体育娱乐,22.632382,114.294208,全年,09:30,18:00,200.0,1.0,2.0
6,欢乐港湾,游乐园/体育娱乐,22.550112,113.888645,全年,10:30,22:00,0.0,1.0,2.0
7,大梅沙海滨公园,公园,22.598129,114.313955,全年,07:00,22:00,0.0,2.0,2.5
8,招商蛇口邮轮母港游览,游乐园/体育娱乐,22.474665,113.919967,全年,07:00,21:00,0.0,2.0,3.0
9,地王观光·深港之窗,人文景观,22.54878,114.116522,全年,08:00,22:30,79.0,2.0,3.0
10,大湾区一号（港珠澳大桥航线）,游乐园/体育娱乐,22.474665,113.919967,全年,00:00,24:00,0.0,2.0,3.0
11,玫瑰海岸文化旅游度假区,文化旅游区,22.615927,114.383865,全年,00:00,24:00,46.0,2.0,2.5
12,深圳湾公园,公园,22.524806,113.969405,全年,06:00,23:00,0.0,3.0,4.0
13,甘坑古镇,文化旅游区,22.663821,114.10953,全年,00:00,24:00,26.0,3.0,4.0
14,小梅沙度假村,游乐园/体育娱乐,22.60689,114.334468,全年,10:00,21:00,45.0,0.5,2.0
15,桔钓沙,自然风光,22.561188,114.562404,全年,09:00,18:00,0.0,2.0,3.0
16,大鹏半岛,自然风光,22.534605,114.537454,全年,00:00,24:00,0.0,2.0,2.5
17,东门老街,商业街区,22.550461,114.122671,全年,00:00,24:00,0.0,2.0,3.0
18,深圳华侨城旅游度假区,游乐园/体育娱乐,22.544406,113.99117,全年,00:00,24:00,0.0,0.5,1.0
19,深圳欢乐海岸,游乐园/体育娱乐,22.529689,113.994371,全年,00:00,24:00,0.0,0.5,1.0
20,西涌,自然风光,22.487953,114.557066,全年,00:00,24:00,0.0,2.5,3.0
21,二十四史书院,文化旅游区,22.667374,114.107486,全年,10:30,21:30,39.0,3.0,3.5
22,中英街,商业街区,22.551336,114.238571,全年,09:00,22:00,0.0,2.0,2.5
23,蛇口工业区,商业街区,22.489321,113.922707,全年,06:15,22:00,0.0,2.0,3.0
24,观澜海洋世界,游乐园/体育娱乐,22.727389,114.084971,全年,09:00,18:00,135.0,0.5,1.0
25,东部华侨城大侠谷,游乐园/体育娱乐,22.614742,114.30781,全年,09:30,18:00,200.0,1.5,2.0
26,杨梅坑,自然风光,22.550779,114.578274,全年,00:00,24:00,0.0,2.0,3.0
27,红树林海滨生态公园,公园,22.529593,114.007715,全年,09:00,18:00,0.0,0.5,1.5
28,深圳博物馆,博物馆/纪念馆,22.549321,114.068288,全年,10:00,18:00,0.0,2.0,2.5
29,深圳市民中心,人文景观,22.549351,114.066182,全年,00:00,24:00,0.0,3.0,4.0
30,欢乐海岸海洋奇梦馆,游乐园/体育娱乐,22.531987,113.994672,全年,13:30,22:00,45.0,2.0,3.0
31,青青世界,游乐园/体育娱乐,22.505076,113.907639,全年,08:30,18:00,76.0,1.5,2.0
32,深圳玛雅海滩水公园,游乐园/体育娱乐,22.547982,113.985916,全年,13:00,21:00,130.0,2.0,2.5
33,蛇口港珠海游轮,游乐园/体育娱乐,22.474693,113.919947,全年,07:30,21:30,0.0,0.5,1.5
35,大鹏所城,历史古迹,22.600032,114.520096,全年,00:00,24:00,0.0,1.0,2.5
36,海上世界,游乐园/体育娱乐,22.488788,113.92358,全年,00:00,24:00,88.0,0.5,1.0
38,金色海岸,自然风光,22.590567,114.284875,全年,17:00,17:30,0.0,0.5,1.0
39,仙湖植物园,公园,22.583562,114.181318,全年,00:00,18:00,0.0,1.0,2.0
40,广东梧桐山国家森林公园,公园,22.5838,114.221632,全年,06:00,19:00,0.0,2.5,3.0
41,莲花山公园,公园,22.559257,114.065193,全年,06:30,23:00,0.0,1.0,2.0
42,深圳观光巴士,游乐园/体育娱乐,22.527998,113.998652,全年,09:00,17:00,50.0,0.5,2.0
43,较场尾,人文景观,22.596202,114.51552,全年,06:00,22:00,300.0,1.0,1.5
45,南头古城,历史古迹,22.549163,113.927048,全年,00:00,24:00,0.0,0.5,1.0
46,大芬油画村,人文景观,22.615801,114.142665,全年,09:30,17:30,0.0,2.5,4.0
47,海上田园,自然风光,22.731941,113.777756,全年,09:00,21:00,49.9,2.5,3.0
48,凤凰古村,文化旅游区,22.697435,113.845676,全年,00:00,24:00,0.0,3.0,4.0
49,盐田海滨栈道,公园,22.558678,114.248517,全年,00:00,24:00,0.0,2.0,3.5
50,海上世界文化艺术中心,美术馆/艺术馆,22.486077,113.922944,全年,10:00,19:00,0.0,2.0,3.0
51,观澜湖休闲旅游区,游乐园/体育娱乐,22.744351,114.083908,全年,00:00,24:00,0.0,1.5,3.0
52,观澜湖生态运动公社,游乐园/体育娱乐,22.724672,114.085207,全年,09:00,18:00,29.9,1.0,2.0
53,深圳科学馆,博物馆/纪念馆,22.548485,114.102354,全年,00:00,24:00,0.0,2.0,2.5
54,荷兰花卉小镇,公园,22.549735,113.91787,全年,08:30,21:00,0.0,1.0,2.0
56,深圳人才公园,公园,22.512223,113.955487,全年,06:00,23:00,0.0,0.5,1.0
57,锦绣中华,游乐园/体育娱乐,22.539142,113.997118,全年,16:00,21:00,0.0,0.5,1.0
58,南山公园,公园,22.500143,113.912003,全年,00:00,24:00,0.0,1.0,1.5
59,南山,公园,22.502974,113.91291,全年,00:00,24:00,0.0,0.5,1.0
60,华侨城创意文化园,文化旅游区,22.543649,113.99986,全年,00:00,24:00,0.0,2.5,3.0
61,光明农场大观园,游乐园/体育娱乐,22.764237,113.968991,全年,09:00,17:00,72.9,0.5,2.0
62,湾区游轮,游乐园/体育娱乐,22.474317,113.920446,全年,00:00,24:00,0.0,3.0,3.5
63,深圳市天文台,人文景观,22.48556,114.565898,全年,09:00,12:00,0.0,1.0,2.0
64,大梅沙海滩,自然风光,22.59867,114.315742,全年,07:00,23:00,0.0,3.0,3.5
65,深圳teamLab共创！未来园,游乐园/体育娱乐,22.534017,114.035093,全年,10:00,22:00,79.0,0.5,1.0
66,深圳图书馆,人文景观,22.551343,114.063825,全年,09:00,21:00,0.0,1.5,2.0
67,西涌滨海旅游度假区,游乐园/体育娱乐,22.481558,114.539055,全年,09:00,24:00,0.0,0.5,1.0
69,大鹏半岛洲际游艇航海中心,游乐园/体育娱乐,22.560753,114.563888,全年,00:00,24:00,0.0,0.5,1.0
70,深圳市当代艺术与城市规划馆,博物馆/纪念馆,22.551648,114.067947,全年,10:00,18:00,0.0,3.0,4.0
71,深圳华润大厦艺术中心,美术馆/艺术馆,22.52058,113.953216,全年,10:00,22:00,0.0,2.0,2.5
72,鹿嘴山庄,自然风光,22.546455,114.613672,全年,00:00,24:00,0.0,0.5,2.0
73,大运中心体育场,游乐园/体育娱乐,22.703088,114.224436,全年,09:00,22:30,0.0,2.0,3.5
74,深圳会展中心（福田馆）,商业街区,22.536478,114.066315,全年,09:00,17:00,0.0,2.5,4.0
75,深圳机场码头游船,游乐园/体育娱乐,22.606327,113.821243,全年,00:00,24:00,0.0,0.5,1.0
76,海上彩虹号,游乐园/体育娱乐,22.606327,113.821243,全年,09:30,19:00,0.0,2.0,3.5
77,尼克Playtime乐园,游乐园/体育娱乐,22.53047,113.998454,全年,10:00,21:00,0.0,0.5,1.5
78,虹桥公园,公园,22.752728,113.959141,全年,07:00,19:00,0.0,1.0,2.5
80,愿望塔,游乐园/体育娱乐,22.60106,114.316145,全年,10:00,21:00,39.0,0.5,1.0
81,海边公园,公园,22.539573,113.89869,全年,00:00,24:00,0.0,0.5,1.5
82,观澜版画村,文化旅游区,22.749032,114.097519,全年,09:00,19:00,0.0,2.0,2.5
83,南澳第一沙滩,自然风光,22.552902,114.488023,全年,08:00,18:00,0.0,1.0,1.5
84,何香凝美术馆,美术馆/艺术馆,22.539465,113.988109,全年,09:30,17:00,0.0,1.5,3.0
85,观澜山水田园文化园,文化旅游区,22.720384,114.113827,全年,08:30,21:00,99.0,1.0,2.5
86,直升机空中游览飞行观光,游乐园/体育娱乐,22.648063,113.829772,全年,09:30,17:30,3980.0,1.0,2.5
87,大梅沙海滨栈道,自然风光,22.587526,114.312314,全年,00:00,24:00,0.0,2.5,4.0
88,南山博物馆,博物馆/纪念馆,22.540715,113.93048,全年,10:00,17:00,0.0,0.5,1.5
89,深圳国际园林花卉博览园,公园,22.544055,114.009914,全年,06:00,23:00,0.0,1.0,2.5
90,七星湾游艇会,游乐园/体育娱乐,22.56827,114.547299,全年,00:00,24:00,0.0,3.0,4.0
91,法拉帝游艇海钓俱乐部,游乐园/体育娱乐,22.561508,114.564975,全年,00:00,24:00,0.0,2.5,4.0
92,蛇口口岸,人文景观,22.482004,113.919541,全年,00:00,24:00,0.0,3.0,3.5
93,云里梦想乐园,游乐园/体育娱乐,22.636385,114.075714,全年,09:00,22:00,93.0,2.5,3.0
94,星高度梦想水世界,游乐园/体育娱乐,22.637461,114.075476,全年,15:30,21:00,0.0,2.0,2.5
95,西乡夜市街,商业街区,22.58798,113.866194,全年,16:00,01:00,0.0,2.0,3.0
96,宝安西湾红树林公园,公园,22.593597,113.843305,全年,00:00,24:00,0.0,2.0,3.5
97,观澜古墟,历史古迹,22.724749,114.060326,全年,08:00,24:00,0.0,2.0,2.5
98,海昌·乐漫冰雪王国(深圳海雅店),游乐园/体育娱乐,22.565974,113.912226,全年,10:00,22:00,178.0,0.5,1.5
99,弘法寺,人文景观,22.583514,114.188174,全年,00:00,18:00,0.0,1.5,3.0
102,奈尔宝家庭中心(卓悦店),游乐园/体育娱乐,22.54231,114.070901,全年,10:00,21:00,0.0,0.5,1.0
103,大梅沙游艇出租中心,游乐园/体育娱乐,22.603396,114.320606,全年,00:00,23:00,0.0,3.0,3.5
104,福田红树林生态公园,公园,22.517213,114.049388,全年,06:00,23:00,0.0,2.5,3.0
105,深圳红立方,游乐园/体育娱乐,22.723965,114.254512,全年,09:30,18:00,0.0,0.5,1.0
106,客家土楼(福建),历史古迹,22.535637,113.998965,全年,10:30,19:00,0.0,0.5,1.0
108,水围1368文化街区,商业街区,22.525026,114.068378,全年,00:00,24:00,0.0,3.0,4.0
109,玫瑰小镇,游乐园/体育娱乐,22.592297,114.487594,全年,09:00,17:00,49.0,2.5,4.0
110,官湖沙滩,自然风光,22.607996,114.42919,全年,07:00,21:00,0.0,1.5,3.0
111,后海,人文景观,22.512803,113.941981,全年,00:00,24:00,0.0,2.0,3.0
113,前海石公园,公园,22.532339,113.895748,全年,00:00,24:00,0.0,2.0,2.5
114,卡鲁冰雪世界,游乐园/体育娱乐,22.723564,114.08611,全年,10:00,22:00,0.0,2.0,2.5
115,南澳蓝宝石沙滩,自然风光,22.543927,114.490429,全年,00:00,24:00,0.0,2.5,4.0
116,冰纷万象滑冰场,游乐园/体育娱乐,22.546085,114.117812,全年,10:30,22:00,0.0,1.5,2.0
117,深圳博物馆-古代艺术馆,博物馆/纪念馆,22.548602,114.108022,全年,10:00,18:17,0.0,3.0,3.5
118,求水山景区,游乐园/体育娱乐,22.604436,114.150121,全年,09:00,19:30,0.0,1.5,2.0
119,东涌沙滩,自然风光,22.495454,114.59069,全年,09:00,18:00,0.0,2.0,3.0
120,北站中心公园,公园,22.612581,114.031468,全年,06:00,22:00,0.0,1.0,2.0
121,华·美术馆,美术馆/艺术馆,22.53914,113.989372,全年,10:00,17:30,0.0,2.5,3.0
122,深圳湾大桥,人文景观,22.493012,113.957048,全年,00:00,24:00,0.0,1.0,2.5
124,东山寺,历史古迹,22.602493,114.5263,全年,08:00,17:00,0.0,2.0,2.5
125,深圳大鹏金沙湾沙滩,自然风光,22.57562,114.467912,全年,08:00,18:00,0.0,1.5,3.0
126,龙岗儿童公园,游乐园/体育娱乐,22.741904,114.231905,全年,06:00,22:00,0.0,1.0,1.5
127,华强北博物馆,博物馆/纪念馆,22.550102,114.093668,全年,10:00,18:00,0.0,2.0,3.0
128,深圳大学城,大学校园,22.590581,113.982769,全年,07:30,21:30,0.0,1.5,2.0
130,大芬美术馆,美术馆/纪念馆,22.616079,114.144869,全年,09:30,17:30,0.0,1.5,3.0
131,笔架山公园,公园,22.568123,114.086519,全年,00:00,17:30,0.0,2.5,4.0
132,大沙河公园,公园,22.562707,113.968234,全年,00:00,24:00,0.0,1.0,2.0
133,中英街历史博物馆,博物馆/纪念馆,22.547992,114.237533,全年,09:00,16:30,0.0,1.0,1.5
134,锦绣中华-少数民族民居,人文景观,22.537034,113.99779,全年,09:30,21:00,0.0,0.5,2.0
135,大鹏半岛地质公园,公园,22.534584,114.537636,全年,09:30,16:00,0.0,2.0,3.0
136,玫瑰海岸沙滩,自然风光,22.615324,114.381268,全年,00:00,24:00,0.0,1.5,3.0
137,马峦山郊野公园,公园,22.650439,114.332252,全年,06:00,18:00,0.0,1.5,3.0
138,大梅沙海滩水乐园,游乐园/体育娱乐,22.59867,114.315742,全年,10:00,20:00,0.0,1.0,1.5
139,深圳湾公园-运动公园,公园,22.491742,113.951518,全年,06:00,23:00,0.0,1.0,1.5
140,清平古墟影视文化园,文化旅游区,22.744132,113.835218,全年,00:00,24:00,0.0,0.5,1.5
142,罗湖美术馆,美术馆/艺术馆,22.549859,114.133777,全年,09:00,17:00,0.0,2.0,3.0
143,深圳湾公园-日出剧场,公园,22.50479,113.958869,全年,00:00,24:00,0.0,2.0,3.0
144,东湖公园,公园,22.569908,114.155375,全年,00:00,23:00,0.0,0.5,2.0
145,锦绣中华-莫高窟,人文景观,22.5375,113.996224,全年,10:30,18:30,0.0,1.5,3.0
146,深圳市儿童公园,公园,22.559966,114.130772,全年,10:00,18:00,0.0,2.0,3.0
147,阳台山森林公园,公园,22.657618,113.97127,全年,06:00,22:00,0.0,2.0,3.5
148,东家湾沙滩,自然风光,22.57054,114.552062,全年,00:00,24:00,0.0,2.0,3.0
149,七娘山,自然风光,22.531869,114.557055,全年,00:00,18:00,0.0,2.0,3.0
151,深圳美术馆(新馆),美术馆/艺术馆,22.630989,114.0303,全年,10:00,18:00,0.0,1.5,2.0
152,背仔角沙滩,自然风光,22.603991,114.357397,全年,00:00,24:00,0.0,2.0,3.5
153,深圳市儿童乐园,游乐园/体育娱乐,22.549651,114.017029,全年,06:00,23:00,0.0,1.0,1.5
154,关山月美术馆,美术馆/艺术馆,22.555045,114.070815,全年,09:00,17:00,0.0,1.5,2.0
155,钱江艺术中心,美术馆/艺术馆,22.635755,114.141927,全年,08:00,20:00,0.0,0.5,2.0
156,邓小平画像广场,人文景观,22.547513,114.110612,全年,00:00,24:00,0.0,0.5,1.0
157,宝安科技馆,博物馆/纪念馆,22.564157,113.918087,全年,10:00,17:00,0.0,1.0,2.0
158,龙岗区科技馆,博物馆/纪念馆,22.724238,114.254217,全年,09:30,18:00,0.0,1.0,2.0
159,中山公园,公园,22.553583,113.925318,全年,00:00,21:00,0.0,2.5,4.0
160,森林小火车站,游乐园/体育娱乐,22.620737,114.300269,全年,00:00,24:00,0.0,1.0,2.0
161,深圳大鹏半岛国家地质自然公园博物馆,博物馆/纪念馆,22.534842,114.537654,全年,09:30,16:30,0.0,2.0,3.5
163,铁仔山公园,公园,22.600843,113.866715,全年,00:00,18:30,0.0,1.0,1.5
164,情人岛,人文景观,22.469168,114.546808,全年,08:00,18:30,0.0,2.5,3.0
165,深圳妇儿大厦-儿童探索馆,游乐园/体育娱乐,22.558107,114.051169,全年,10:00,20:00,0.0,3.0,3.5
166,深圳湾公园-流花山,公园,22.518145,113.960529,全年,06:00,23:00,0.0,2.0,3.0
168,沙鱼涌,红色景点,22.619315,114.410777,全年,00:00,24:00,20.0,3.0,4.0
169,深圳书城(中心城店),商业街区,22.552693,114.066282,全年,10:00,22:00,0.0,0.5,1.0
171,背仔角灯塔,人文景观,22.597708,114.347046,全年,06:00,24:00,0.0,2.5,3.0
172,沙井古墟,历史古迹,22.744132,113.835218,全年,00:00,24:00,0.0,1.5,2.0
173,茶翁古镇,文化旅游区,22.639788,114.280971,全年,10:00,17:00,0.0,1.0,1.5
174,红花山公园,公园,22.787267,113.907995,全年,00:00,21:30,0.0,2.0,3.0
175,大鹏半岛东西冲海岸线,自然风光,22.496988,114.587437,全年,00:00,24:00,0.0,1.0,1.5
176,园山风景区,自然风光,22.645088,114.248074,全年,07:00,18:00,15.0,2.0,2.5
177,深圳音乐厅,人文景观,22.553073,114.063674,全年,09:00,18:30,0.0,1.5,3.0
178,深圳中心公园,公园,22.558082,114.084904,全年,00:00,24:00,0.0,3.0,3.5
179,深圳蛇口海洋科普馆,博物馆/纪念馆,22.493342,113.933215,全年,09:00,11:30,0.0,0.5,2.0
181,深圳美术馆(东湖馆),美术馆/艺术馆,22.577304,114.153909,全年,09:00,17:00,0.0,3.0,4.0
182,龙华公园,公园,22.663733,114.023117,全年,00:00,24:00,0.0,1.0,2.5
183,光明欢乐田园,游乐园/体育娱乐,22.789163,113.966271,全年,09:30,17:00,0.0,3.0,4.0
184,星河发展中心大厦-健身中心,游乐园/体育娱乐,22.539036,114.067965,全年,00:00,24:00,0.0,2.0,3.5
185,荔枝公园,公园,22.551843,114.108658,全年,05:30,23:00,0.0,2.0,3.0
186,东冲,自然风光,22.495454,114.59069,全年,09:00,19:00,0.0,1.5,2.0
187,华侨城国家湿地公园,公园,22.533806,113.989416,全年,09:30,17:00,0.0,2.5,4.0
188,日军侵华碉堡,历史古迹,22.77931,113.855686,全年,09:00,21:00,0.0,0.5,1.5
189,大梅沙帆船游艇俱乐部,游乐园/体育娱乐,22.602864,114.317822,全年,00:00,24:00,0.0,0.5,1.0
191,南头古城博物馆,博物馆/纪念馆,22.546714,113.926466,全年,10:00,17:00,0.0,2.0,3.0
192,深圳失恋博物馆（东门老街旗舰店）,博物馆/纪念馆,22.551553,114.125424,全年,10:00,22:00,138.0,2.0,3.5
193,深圳湾体育中心,游乐园/体育娱乐,22.52418,113.956211,全年,09:30,22:30,0.0,1.5,2.0
194,滨海文化公园,公园,22.550402,113.889977,全年,06:00,23:00,0.0,0.5,2.0
195,香蜜公园,公园,22.55278,114.028539,全年,06:00,23:00,0.0,1.0,2.5
196,深圳独角兽星空艺术馆,美术馆/艺术馆,22.551682,114.124635,全年,10:00,22:00,39.9,1.5,2.0
197,东部通航·空中的士直升机飞行基地(大中华店),游乐园/体育娱乐,22.547621,114.07129,全年,08:00,22:00,0.0,0.5,1.5
198,龙园,游乐园/体育娱乐,22.739521,114.272187,全年,00:00,24:00,0.0,1.5,2.0
199,女娲滨海公园,公园,22.485998,113.925285,全年,00:00,24:00,0.0,1.5,2.0
200,浪骑游艇会,游乐园/体育娱乐,22.560046,114.56792,全年,09:00,17:30,0.0,3.0,3.5
201,白石龙音乐主题公园,公园,22.602637,114.044815,全年,00:00,24:00,0.0,2.0,2.5
202,灯塔图书馆,图书馆/纪念馆,22.558537,114.248125,全年,12:00,19:00,0.0,0.5,1.0
203,探洞工场(欢乐海岸店),游乐园/体育娱乐,22.531826,113.995971,全年,10:00,22:00,0.0,2.5,4.0
204,小凉帽农场,游乐园/体育娱乐,22.664422,114.10743,全年,10:00,18:00,0.0,1.0,1.5
205,海贝湾潜水基地,游乐园/体育娱乐,22.546464,114.491542,全年,08:30,17:30,0.0,3.0,3.5
206,深圳天空之城,游乐园/体育娱乐,22.562339,113.97147,全年,10:00,18:00,0.0,3.0,4.0
207,深圳坝光海上跳伞基地,游乐园/体育娱乐,22.663499,114.50974,全年,08:00,18:00,2679.0,3.0,3.5
209,大澳湾沙滩,自然风光,22.566678,114.473557,全年,00:00,24:00,0.0,2.0,3.0
211,哈特曼航空体验馆,游乐园/体育娱乐,22.586442,113.898367,全年,10:00,18:30,666.0,3.0,4.0
212,观音山公园,公园,22.59073,114.463006,全年,00:00,17:00,0.0,3.0,3.5
213,深圳珠宝博物馆,博物馆/纪念馆,22.575667,114.134294,全年,10:00,17:00,0.0,3.0,4.0
214,坪山美术馆,美术馆/纪念馆,22.713324,114.352785,全年,09:00,17:00,0.0,2.0,3.5
215,月亮湾公园,公园,22.507174,113.905261,全年,00:00,24:00,0.0,3.0,4.0
216,香蜜湖1979文化创意园,文化旅游区,22.558217,114.03762,全年,00:00,24:00,0.0,1.0,2.5
217,沙鱼涌沙滩,自然风光,22.613233,114.423108,全年,00:00,24:00,0.0,2.5,3.0
218,洪湖公园,公园,22.572204,114.12688,全年,00:00,23:00,0.0,2.0,3.5
219,大雁顶,自然风光,22.531168,114.603107,全年,07:00,16:00,0.0,2.0,3.5
220,梅林水库,自然风光,22.578353,114.034039,全年,00:00,24:00,0.0,0.5,1.0
221,东部华侨城水公园,游乐园/体育娱乐,22.612073,114.312626,全年,13:30,18:00,0.0,1.0,1.5
222,西湾滨海公园,公园,22.602311,113.839758,全年,00:00,24:00,0.0,3.0,3.5
223,邓小平画像,人文景观,22.547651,114.110434,全年,00:00,24:00,0.0,3.0,4.0
225,立新湖公园,公园,22.690618,113.827049,全年,11:00,21:00,0.0,1.0,2.5
226,香格里拉雪域,自然风光,22.550111,113.988179,全年,00:00,24:00,0.0,1.5,2.0
227,弘源寺,历史古迹,22.708235,113.908077,全年,00:00,18:00,0.0,3.0,4.0
228,大鹏湾游艇,游乐园/体育娱乐,22.568409,114.47173,全年,08:00,22:00,0.0,2.5,4.0
229,OAO艺术空间,美术馆/艺术馆,22.682048,113.814862,全年,09:00,19:30,0.0,1.0,2.0
230,观澜河湿地公园,公园,22.688765,114.049529,全年,00:00,24:00,0.0,2.0,3.0
231,香蜜湖,游乐园/体育娱乐,22.553273,114.03871,全年,00:00,21:30,0.0,0.5,1.5
232,马峦山瀑布,自然风光,22.643601,114.345157,全年,07:00,18:00,0.0,2.0,2.5
233,桔钓沙莱华·帆海汇海上运动中心,游乐园/体育娱乐,22.562315,114.559473,全年,09:00,18:00,0.0,2.0,3.0
234,大万世居,历史古迹,22.687486,114.349087,全年,09:00,12:00,0.0,2.5,3.0
235,人民公园,公园,22.55949,114.12365,全年,00:00,24:00,0.0,2.5,4.0
236,大鹿港,自然风光,22.468628,114.508002,全年,00:00,00:00,0.0,0.5,2.0
239,杨梅坑出海,自然风光,22.548729,114.578701,全年,00:00,24:00,0.0,1.0,2.5
240,深圳市中心公园,公园,22.538145,114.082039,全年,00:00,24:00,0.0,1.0,1.5
241,四海公园,公园,22.501741,113.933434,全年,00:00,22:00,0.0,1.5,3.0
242,坝光海滩,自然风光,22.650494,114.507872,全年,00:00,24:00,0.0,2.0,3.0
243,碧海湾公园,公园,22.590213,113.859334,全年,08:00,18:00,0.0,3.0,3.5
245,深圳博物馆历史民俗馆,博物馆/纪念馆,22.549639,114.068173,全年,10:00,18:00,0.0,2.5,3.0
247,前海演艺公园,公园,22.539573,113.89869,全年,00:00,24:00,0.0,1.5,3.0
248,南澳月亮湾双拥码头,人文景观,22.537349,114.496377,全年,09:00,16:30,0.0,1.0,2.5
250,光明滑草游乐园,游乐园/体育娱乐,22.759672,113.970056,全年,09:30,17:30,63.59,2.0,2.5
251,马峦山,自然风光,22.652801,114.332475,全年,06:00,18:00,0.0,2.0,3.0
252,东部通航·空中的士直升机飞行基地(盐田店),游乐园/体育娱乐,22.597549,114.295795,全年,09:00,18:00,0.0,0.5,2.0
253,深圳市工业展览馆,博物馆/纪念馆,22.549223,114.065691,全年,09:30,17:30,0.0,0.5,1.5
255,春江游乐求水山景区游乐场,游乐园/体育娱乐,22.604358,114.148958,全年,10:00,19:30,18.0,2.0,3.0
256,求水山公园,游乐园/体育娱乐,22.604436,114.150121,全年,00:00,24:00,0.0,1.0,2.0
257,中潜潜水世界,游乐园/体育娱乐,22.538643,113.934129,全年,09:00,22:00,0.0,1.0,2.0
258,nicemini 网红打卡·光影艺术馆,美术馆/艺术馆,22.753128,114.065052,全年,10:00,21:00,78.0,0.5,2.0
259,塘朗山郊野公园,公园,22.578138,114.000656,全年,07:30,22:00,0.0,0.5,1.0
260,盐田中央公园,公园,22.558647,114.246274,全年,00:00,24:00,0.0,3.0,3.5
262,锦绣园,公园,22.532352,114.06596,全年,06:00,18:00,0.0,1.5,3.0
265,海山公园(深盐路),公园,22.565973,114.246598,全年,00:00,24:00,0.0,3.0,4.0
266,龙城公园,公园,22.718913,114.232846,全年,00:00,24:00,0.0,2.5,4.0
267,梧桐山艺术小镇,人文景观,22.596237,114.20043,全年,00:00,24:00,0.0,3.0,3.5
268,星野StarField · 椰林沙滩,游乐园/体育娱乐,22.527999,113.996001,全年,00:00,24:00,0.0,3.0,3.5
269,招商局历史博物馆,博物馆/纪念馆,22.483808,113.920004,全年,09:00,12:00,0.0,2.0,2.5
270,宝安体育馆,游乐园/体育娱乐,22.56813,113.892265,全年,08:00,12:00,0.0,0.5,1.0
271,海菲德(小城),游乐园/体育娱乐,22.614471,114.310886,全年,09:30,18:00,0.0,0.5,1.5
272,OCAT(深圳馆),美术馆/艺术馆,22.543276,114.000258,全年,10:00,17:30,0.0,0.5,2.0
273,云海山庄私人沙滩,游乐园/体育娱乐,22.562392,114.474991,全年,10:00,22:00,0.0,2.5,4.0
274,穿越深圳,人文景观,22.553048,114.128443,全年,10:30,21:20,39.9,2.0,3.0
275,海景公园,公园,22.557847,114.247511,全年,00:00,24:00,0.0,2.0,3.5
277,森林王国亲子乐园,游乐园/体育娱乐,22.693214,114.244639,全年,09:00,22:00,0.0,1.0,1.5
278,东部华侨城-1号观景台,游乐园/体育娱乐,22.652906,114.285359,全年,00:00,24:00,0.0,2.0,3.0
279,银湖山郊野公园,公园,22.599109,114.086607,全年,05:00,22:00,0.0,1.0,2.0
280,科兴科技园,商业街区,22.553843,113.950104,全年,00:00,24:00,0.0,2.0,3.5
281,小南山公园,公园,22.49181,113.891606,全年,06:30,21:30,0.0,1.5,3.0
282,头号玩家跳伞俱乐部(深圳店),游乐园/体育娱乐,22.714668,114.264387,全年,08:00,18:00,0.0,1.0,2.0
283,玉龙公园,公园,22.605519,114.040827,全年,06:30,23:00,0.0,3.0,3.5
284,昭君墓,历史古迹,22.538034,113.99797,全年,09:30,20:00,0.0,1.5,2.0
285,深圳花海间,公园,22.594911,114.535303,全年,12:00,24:00,0.0,0.5,1.5
286,天空美术馆,美术馆/艺术馆,22.547709,114.057131,全年,10:00,20:00,0.0,2.5,4.0
287,蛇口价值工厂,人文景观,22.473784,113.901987,全年,09:00,18:00,0.0,1.0,1.5
288,铁路公园,公园,22.589074,114.122018,全年,00:00,24:00,0.0,2.0,3.0
289,大沙河生态长廊,公园,22.533165,113.961547,全年,06:00,23:00,0.0,1.0,2.0
290,SGP卡丁车俱乐部,游乐园/体育娱乐,22.585436,114.113358,全年,12:00,22:00,0.0,3.0,4.0
291,塘朗山公园,公园,22.577731,113.999693,全年,00:00,24:00,0.0,2.0,2.5
294,南澳政洁沙滩,自然风光,22.507697,114.49212,全年,00:00,24:00,0.0,2.0,3.0
295,光明文化艺术中心,美术馆/艺术馆,22.75132,113.94364,全年,00:00,24:00,0.0,2.0,3.0
296,南山图书馆,人文景观,22.540607,113.928925,全年,09:00,21:00,0.0,1.5,3.0
297,平湖生态园,公园,22.680421,114.11741,全年,08:00,22:00,0.0,1.0,1.5
298,罗瑞合台湾美食街,商业街区,22.731611,114.275127,全年,17:00,24:00,0.0,2.0,3.0
299,深圳宝安马拉松,游乐园/体育娱乐,22.557779,113.890046,全年,00:00,24:00,0.0,2.5,4.0
300,深圳自由鹿游艇尾波冲浪俱乐部,游乐园/体育娱乐,22.568241,114.54729,全年,08:30,18:00,1770.0,1.5,2.0
301,天后博物馆,博物馆/纪念馆,22.484396,113.898904,全年,09:00,16:00,0.0,1.5,3.0
302,鹤湖新居,历史古迹,22.733897,114.272626,全年,10:00,17:30,0.0,1.5,3.0
303,福田区体育公园,游乐园/体育娱乐,22.531886,114.042436,全年,07:00,22:00,0.0,1.0,1.5
304,悬空玻璃艺术馆,美术馆/艺术馆,22.551689,114.124899,全年,10:00,22:30,0.0,1.5,2.0
305,南海意库,商业街区,22.492585,113.924141,全年,08:30,12:00,0.0,2.5,4.0
306,坪山雕塑艺术创意园,美术馆/艺术馆,22.681874,114.355523,全年,00:00,24:00,0.0,2.0,2.5
307,万佛禅寺,人文景观,22.561506,114.154554,全年,07:00,17:00,0.0,1.0,2.0
308,坪山公园,公园,22.694206,114.350082,全年,00:00,24:00,0.0,1.0,1.5
310,广东翔云跳伞俱乐部(深圳店),游乐园/体育娱乐,22.630646,114.039802,全年,00:00,23:30,0.0,1.0,2.0
311,深圳望野博物馆,博物馆/纪念馆,22.660034,114.047496,全年,09:00,21:00,0.0,1.0,2.0
312,石岩湿地公园,公园,22.685293,113.928046,全年,05:00,21:00,0.0,3.0,4.0
313,天涯海角,自然风光,22.535314,113.998475,全年,19:00,22:00,0.0,2.5,3.0
314,葵涌官湖村海滩,自然风光,22.60795,114.429033,全年,10:00,22:00,0.0,3.0,3.5
315,大侠谷瀑布,自然风光,22.632382,114.294208,全年,00:00,24:00,0.0,2.5,3.0
316,深圳市大鹏新区古城博物馆,博物馆/纪念馆,22.601288,114.519624,全年,09:00,17:00,0.0,3.0,4.0
317,紫荆坊香港国际风情街,商业街区,22.515623,114.067433,全年,00:00,24:00,0.0,2.5,4.0
318,奇幻冰雪世界,游乐园/体育娱乐,22.68415,114.001339,全年,10:00,22:30,39.9,0.5,1.5
319,上围艺术村,人文景观,22.686074,114.088753,全年,00:00,24:00,0.0,0.5,2.0
320,四季漫天冰雪主题乐园,游乐园/体育娱乐,22.638178,114.223452,全年,10:00,21:00,0.0,2.0,3.0
321,梅沙湾公园,公园,22.605358,114.32048,全年,00:00,24:00,0.0,1.0,2.0
322,东江游击队指挥部旧址纪念馆,红色景点,22.550945,114.124056,全年,09:30,20:00,0.0,1.0,2.5
323,宝安耶稣君王堂,人文景观,22.590244,113.917481,全年,08:00,12:00,0.0,2.0,3.0
324,丛林缆车,游乐园/体育娱乐,22.614579,114.307911,全年,10:00,17:30,0.0,1.0,2.5
325,燕晗山郊野公园,公园,22.547834,113.99283,全年,00:00,24:00,0.0,2.5,4.0
327,较场尾龙岐湾游艇会,游乐园/体育娱乐,22.596374,114.519673,全年,08:00,18:00,0.0,0.5,1.0
328,东部华侨城直升机体验,游乐园/体育娱乐,22.632275,114.294924,全年,09:30,17:30,698.0,2.5,3.0
330,O·POWER文化艺术中心,美术馆/艺术馆,22.551278,113.992941,全年,09:00,21:00,0.0,2.0,3.0
332,海上世界海滩小镇(海上世界汇港购物中心二期店),游乐园/体育娱乐,22.491447,113.921267,全年,09:00,21:00,0.0,0.5,1.0
333,龙兴寺,历史古迹,22.741234,114.269697,全年,08:00,17:00,0.0,1.5,3.0
334,东山村,历史古迹,22.559515,114.535762,全年,00:00,24:00,0.0,3.0,4.0
336,宝安公园,公园,22.592152,113.909323,全年,00:00,22:00,0.0,2.5,4.0
337,龙潭公园,公园,22.729943,114.249268,全年,00:00,24:00,0.0,1.5,2.0
338,新体育海洋运动中心（大鹏游艇会）,游乐园/体育娱乐,22.560125,114.56584,全年,09:00,18:00,0.0,0.5,2.0
339,彩虹星球游乐园,游乐园/体育娱乐,22.722429,113.839829,全年,10:00,21:00,0.0,1.0,2.5
341,红立方公共艺术馆,美术馆/艺术馆,22.723569,114.254963,全年,09:30,18:00,0.0,0.5,1.0
342,宝安图书馆,博物馆/纪念馆,22.555051,113.889099,全年,09:00,21:00,0.0,0.5,1.5
343,沙头角,商业街区,22.555547,114.234118,全年,09:00,12:00,0.0,3.0,4.0
344,龙华文体中心,游乐园/体育娱乐,22.66336,114.048731,全年,06:30,22:00,0.0,0.5,1.0
345,淘金山绿道,公园,22.593531,114.15295,全年,00:00,24:00,0.0,1.0,1.5
